###############################################
##         ENVERUS                           ##
##         Essential Plus Curves             ##
##         PERMIAN-DELAWARE                  ##
##         Copyright ©                       ##
##         Enverus Version - V002            ##
##         Aug 22 2020                       ##
##         42-389-33719-00-00                ##
###############################################
## Copyright 2017-2020  ENVERUS.  All Rights Reserved. 
## Confidential - Property of ENVERUS, use governed by terms and 
## conditions found within the existing Information Services Subscription Agreement 
## (as may be amended, the “ISSA”) between Customer and ENVERUS. 
## 
#___________________________________________________________________________________________________
~VERSION INFORMATION
# MNEM.UNIT                               DATA : DESCRIPTION OF MNEMONIC
#-----.-----     ----------------------------- : -----------------------------
VERS.                                     2.00 : CWLS LOG ASCII STANDARD - VERSION 2.00
WRAP.                                       NO : MULTIPLE LINES PER DEPTH STEP
VEND.                                  ENVERUS : VENDOR
ENV_TYPE.                ESSENTIAL PLUS CURVES : Enverus Essential Plus Curves – Accessible through Enverus Core(TM)
ENV_VERS.                                 V002 : Essential Plus Curves Version number 
ENV_DOC.            25654179,32857041,32912501 : ENVERUS Header Document id
#___________________________________________________________________________________________________ 
~WELL INFORMATION 
# uyaQ8P8kQDJ9DXFS5hR1PxmExEOYaAUkY5f3/tnOS+scoPAUWgXA1zCIHGRbWCuSuUcwDzaESCjqjWQ81XhadA== 
# MNEM.UNIT                                              DATA : DESCRIPTION OF MNEMONIC 
#-----.-----                    ----------------------------- : ----------------------------- 
CNTY.                                                  REEVES : COUNTY 
STATE.                                                  TEXAS : STATE 
CNTRY.                                                    USA : COUNTRY 
API.                                             42-389-33719 : API (10 Digit) 
API_14.                                    42-389-33719-00-00 : API (14 Digits) 
API_14_std.                                 42-389-33719-0000 : API (14 Digits Standard) 
UWI.                                           42389337190000 : UNIQUE WELL ID
STRT.FT                                                  9300 : START DEPTH
STOP.FT                                               11066.5 : STOP DEPTH
STEP.FT                                                   0.5 : STEP DEPTH
NULL.                                               -999.2500 : NULL VALUE
WELL.                              COSMO INVESTMENTS 45-45 1V : WELL NAME 
GR_ELEV.                                                 2495 : GROUND ELEVATION 
SLAT.                                             31 63274864 : LATITUDE 
SLONG.                                          -104 05424972 : LONGITUDE
#___________________________________________________________________________________________________ 
~CURVE INFORMATION 
# MNEM.UNIT           : CURVE DESCRIPTION 
#-----.-----          : ----------------------------- 
DEPT.FT               : MEASURED DEPTH 
CALI_RSE.IN           : RSEG CALIPER - CLEANED BLENDED AND LUMPED 
CALI_RSF.             : RSEG CALIPER - STATUS FLAG 
CALI_RSS.             : RSEG CALIPER - SOURCE 
GR_RSE.API            : RSEG GAMMA RAY - CLEANED BLENDED AND LUMPED 
GR_RSF.               : RSEG GAMMA RAY - STATUS FLAG 
GR_RSS.               : RSEG GAMMA RAY - SOURCE 
NPHI_RSE.V/V          : RSEG NEUTRON POROSITY - CLEANED BLENDED AND LUMPED 
NPHI_RSF.             : RSEG NEUTRON POROSITY -  STATUS FLAG 
NPHI_RSS.             : RSEG NEUTRON POROSITY - SOURCE 
RHOB_RSE.G/CC         : RSEG BULK DENSITY - CLEANED BLENDED AND LUMPED 
RHOB_RSF.             : RSEG BULK DENSITY -  STATUS FLAG 
RHOB_RSS.             : RSEG BULK DENSITY - SOURCE 
PE_RSE.B/E            : RSEG PHOTOELECTRIC - CLEANED BLENDED AND LUMPED 
PE_RSF.               : RSEG PHOTOELECTRIC -  STATUS FLAG 
PE_RSS.               : RSEG PHOTOELECTRIC - SOURCE
#___________________________________________________________________________________________________ 
~A         DEPT       CALI_RSE       CALI_RSF       CALI_RSS         GR_RSE         GR_RSF         GR_RSS       NPHI_RSE       NPHI_RSF       NPHI_RSS       RHOB_RSE       RHOB_RSF       RHOB_RSS         PE_RSE         PE_RSF         PE_RSS
# ...
       11051.00          8.560           2.00           0.00       -999.250        -999.25        -999.25     -999.25000        -999.25        -999.25        2.66300           0.00           0.00         3.2730           0.00           0.00
       11051.50          8.560           2.00           0.00       -999.250        -999.25        -999.25     -999.25000        -999.25        -999.25        2.68100           0.00           0.00         3.2450           0.00           0.00
       11052.00          8.560           2.00           0.00       -999.250        -999.25        -999.25     -999.25000        -999.25        -999.25        2.71800           0.00           0.00         3.3970           0.00           0.00
       11052.50          8.560           2.00           0.00       -999.250        -999.25        -999.25     -999.25000        -999.25        -999.25        2.75300           0.00           0.00         3.5490           0.00           0.00
       11053.00          8.560           2.00           0.00       -999.250        -999.25        -999.25     -999.25000        -999.25        -999.25        2.80200           0.00           0.00         3.6970           0.00           0.00
       11053.50          8.560           2.00           0.00       -999.250        -999.25        -999.25     -999.25000        -999.25        -999.25        2.79300           0.00           0.00         3.8250           0.00           0.00
       11054.00          8.560           2.00           0.00       -999.250        -999.25        -999.25     -999.25000        -999.25        -999.25        2.75800           0.00           0.00         3.6060           0.00           0.00
       11054.50          8.560           2.00           0.00       -999.250        -999.25        -999.25     -999.25000        -999.25        -999.25        2.72700           0.00           0.00         3.4100           0.00           0.00
       11055.00          8.560           2.00           0.00       -999.250        -999.25        -999.25     -999.25000        -999.25        -999.25        2.69700           0.00           0.00         3.1750           0.00           0.00
       11055.50          8.560           2.00           0.00       -999.250        -999.25        -999.25     -999.25000        -999.25        -999.25        2.66300           0.00           0.00         3.1540           0.00           0.00
       11056.00          8.560           2.00           0.00       -999.250        -999.25        -999.25     -999.25000        -999.25        -999.25        2.64900           0.00           0.00         3.2260           0.00           0.00
       11056.50          8.560           2.00           0.00       -999.250        -999.25        -999.25     -999.25000        -999.25        -999.25        2.65100           0.00           0.00         3.3360           0.00           0.00
       11057.00          8.560           2.00           0.00       -999.250        -999.25        -999.25     -999.25000        -999.25        -999.25        2.65700           0.00           0.00         3.4510           0.00           0.00
       11057.50          8.560           2.00           0.00       -999.250        -999.25        -999.25     -999.25000        -999.25        -999.25        2.67100           0.00           0.00         3.5740           0.00           0.00
       11058.00          8.560           2.00           0.00       -999.250        -999.25        -999.25     -999.25000        -999.25        -999.25        2.68500           0.00           0.00         3.6250           0.00           0.00
       11058.50          8.520           2.00           0.00       -999.250        -999.25        -999.25     -999.25000        -999.25        -999.25        2.68800           0.00           0.00         3.5390           0.00           0.00
       11059.00          8.520           2.00           0.00       -999.250        -999.25        -999.25     -999.25000        -999.25        -999.25        2.67800           0.00           0.00         3.4620           0.00           0.00
       11059.50          8.520           2.00           0.00       -999.250        -999.25        -999.25     -999.25000        -999.25        -999.25        2.67000           0.00           0.00         3.3820           0.00           0.00
       11060.00          8.520           2.00           0.00       -999.250        -999.25        -999.25     -999.25000        -999.25        -999.25        2.66200           0.00           0.00         3.3280           0.00           0.00
       11060.50          8.440           2.00           0.00       -999.250        -999.25        -999.25     -999.25000        -999.25        -999.25        2.65300           0.00           0.00         3.2870           0.00           0.00
       11061.00          8.440           2.00           0.00       -999.250        -999.25        -999.25     -999.25000        -999.25        -999.25        2.64500           0.00           0.00         3.2450           0.00           0.00
       11061.50          8.440           2.00           0.00       -999.250        -999.25        -999.25     -999.25000        -999.25        -999.25        2.63900           0.00           0.00         3.2030           0.00           0.00
       11062.00          8.440           2.00           0.00       -999.250        -999.25        -999.25     -999.25000        -999.25        -999.25        2.63600           0.00           0.00         3.1610           0.00           0.00
       11062.50          8.400           0.00           0.00       -999.250        -999.25        -999.25     -999.25000        -999.25        -999.25        2.63200           0.00           0.00         3.1200           0.00           0.00
       11063.00          8.360           2.00           0.00       -999.250        -999.25        -999.25     -999.25000        -999.25        -999.25        2.62800           0.00           0.00         3.0800           0.00           0.00
       11063.50          8.360           2.00           0.00       -999.250        -999.25        -999.25     -999.25000        -999.25        -999.25     -999.25000        -999.25        -999.25      -999.2500        -999.25        -999.25
       11064.00          8.360           2.00           0.00       -999.250        -999.25        -999.25     -999.25000        -999.25        -999.25     -999.25000        -999.25        -999.25      -999.2500        -999.25        -999.25
       11064.50          8.360           2.00           0.00       -999.250        -999.25        -999.25     -999.25000        -999.25        -999.25     -999.25000        -999.25        -999.25      -999.2500        -999.25        -999.25
       11065.00          8.400           0.00           0.00       -999.250        -999.25        -999.25     -999.25000        -999.25        -999.25     -999.25000        -999.25        -999.25      -999.2500        -999.25        -999.25
       11065.50          8.385           0.00           0.00       -999.250        -999.25        -999.25     -999.25000        -999.25        -999.25     -999.25000        -999.25        -999.25      -999.2500        -999.25        -999.25
       11066.00          8.320           2.00           0.00       -999.250        -999.25        -999.25     -999.25000        -999.25        -999.25     -999.25000        -999.25        -999.25      -999.2500        -999.25        -999.25
       11066.50          8.320           2.00           0.00       -999.250        -999.25        -999.25     -999.25000        -999.25        -999.25     -999.25000        -999.25        -999.25      -999.2500        -999.25        -999.25
