###############################################
##         ENVERUS                           ##
##         Essential Plus Curves             ##
##         PERMIAN-DELAWARE                  ##
##         Copyright ©                       ##
##         Enverus Version - V002            ##
##         Aug 22 2020                       ##
##         42-389-33719-00-00                ##
###############################################
## Copyright 2017-2020  ENVERUS.  All Rights Reserved. 
## Confidential - Property of ENVERUS, use governed by terms and 
## conditions found within the existing Information Services Subscription Agreement 
## (as may be amended, the “ISSA”) between Customer and ENVERUS. 
## 
#___________________________________________________________________________________________________
~VERSION INFORMATION
# MNEM.UNIT                               DATA : DESCRIPTION OF MNEMONIC
#-----.-----     ----------------------------- : -----------------------------
VERS.                                     2.00 : CWLS LOG ASCII STANDARD - VERSION 2.00
WRAP.                                       NO : MULTIPLE LINES PER DEPTH STEP
VEND.                                  ENVERUS : VENDOR
ENV_TYPE.                ESSENTIAL PLUS CURVES : Enverus Essential Plus Curves – Accessible through Enverus Core(TM)
ENV_VERS.                                 V002 : Essential Plus Curves Version number 
ENV_DOC.            25654179,32857041,32912501 : ENVERUS Header Document id
#___________________________________________________________________________________________________ 
~WELL INFORMATION 
# uyaQ8P8kQDJ9DXFS5hR1PxmExEOYaAUkY5f3/tnOS+scoPAUWgXA1zCIHGRbWCuSuUcwDzaESCjqjWQ81XhadA== 
# MNEM.UNIT                                              DATA : DESCRIPTION OF MNEMONIC 
#-----.-----                    ----------------------------- : ----------------------------- 
CNTY.                                                  REEVES : COUNTY 
STATE.                                                  TEXAS : STATE 
CNTRY.                                                    USA : COUNTRY 
API.                                             42-389-33719 : API (10 Digit) 
API_14.                                    42-389-33719-00-00 : API (14 Digits) 
API_14_std.                                 42-389-33719-0000 : API (14 Digits Standard) 
UWI.                                           42389337190000 : UNIQUE WELL ID
STRT.FT                                                  9300 : START DEPTH
STOP.FT                                               11066.5 : STOP DEPTH
STEP.FT                                                   0.5 : STEP DEPTH
NULL.                                               -999.2500 : NULL VALUE
WELL.                              COSMO INVESTMENTS 45-45 1V : WELL NAME 
GR_ELEV.                                                 2495 : GROUND ELEVATION 
SLAT.                                             31 63274864 : LATITUDE 
SLONG.                                          -104 05424972 : LONGITUDE
#___________________________________________________________________________________________________ 
~CURVE INFORMATION 
# MNEM.UNIT           : CURVE DESCRIPTION 
#-----.-----          : ----------------------------- 
DEPT.FT               : MEASURED DEPTH 
CALI_RSE.IN           : RSEG CALIPER - CLEANED BLENDED AND LUMPED 
CALI_RSF.             : RSEG CALIPER - STATUS FLAG 
CALI_RSS.             : RSEG CALIPER - SOURCE 
GR_RSE.API            : RSEG GAMMA RAY - CLEANED BLENDED AND LUMPED 
GR_RSF.               : RSEG GAMMA RAY - STATUS FLAG 
GR_RSS.               : RSEG GAMMA RAY - SOURCE 
NPHI_RSE.V/V          : RSEG NEUTRON POROSITY - CLEANED BLENDED AND LUMPED 
NPHI_RSF.             : RSEG NEUTRON POROSITY -  STATUS FLAG 
NPHI_RSS.             : RSEG NEUTRON POROSITY - SOURCE 
RHOB_RSE.G/CC         : RSEG BULK DENSITY - CLEANED BLENDED AND LUMPED 
RHOB_RSF.             : RSEG BULK DENSITY -  STATUS FLAG 
RHOB_RSS.             : RSEG BULK DENSITY - SOURCE 
PE_RSE.B/E            : RSEG PHOTOELECTRIC - CLEANED BLENDED AND LUMPED 
PE_RSF.               : RSEG PHOTOELECTRIC -  STATUS FLAG 
PE_RSS.               : RSEG PHOTOELECTRIC - SOURCE
#___________________________________________________________________________________________________ 
~A         DEPT       CALI_RSE       CALI_RSF       CALI_RSS         GR_RSE         GR_RSF         GR_RSS       NPHI_RSE       NPHI_RSF       NPHI_RSS       RHOB_RSE       RHOB_RSF       RHOB_RSS         PE_RSE         PE_RSF         PE_RSS
# ...
       10473.00          8.649           2.00           0.00         98.454           0.00           0.00        0.17200           0.00           2.71        2.56700           0.00           0.00         3.0390           0.00           0.00
       10473.50          8.649           2.00           0.00         90.644           0.00           0.00        0.16400           0.00           2.71        2.58400           0.00           0.00         2.9440           0.00           0.00
       10474.00          8.649           2.00           0.00         87.650           0.00           0.00        0.14800           0.00           2.71        2.58600           0.00           0.00         2.8970           0.00           0.00
       10474.50          8.649           2.00           0.00         91.297           0.00           0.00        0.13300           0.00           2.71        2.58700           0.00           0.00         3.1160           0.00           0.00
       10475.00          8.649           2.00           0.00         94.932           0.00           0.00        0.14300           0.00           2.71        2.57800           0.00           0.00         3.4870           0.00           0.00
       10475.50          8.649           2.00           0.00         79.103           0.00           0.00        0.13800           0.00           2.71        2.57100           0.00           0.00         3.8930           0.00           0.00
       10476.00          8.649           2.00           0.00         66.189           0.00           0.00        0.10300           0.00           2.71        2.57300           0.00           0.00         3.9750           0.00           0.00
       10476.50          8.649           2.00           0.00         52.882           0.00           0.00        0.05900           0.00           2.71        2.60600           0.00           0.00         4.0910           0.00           0.00
       10477.00          8.649           2.00           0.00         47.766           0.00           0.00        0.06000           0.00           2.71        2.63700           0.00           0.00         3.9940           0.00           0.00
       10477.50          8.649           2.00           0.00         65.478           0.00           0.00        0.09000           0.00           2.71        2.60000           0.00           0.00         3.6480           0.00           0.00
       10478.00          8.649           2.00           0.00         90.258           0.00           0.00        0.11900           0.00           2.71        2.56400           0.00           0.00         3.3320           0.00           0.00
       10478.50          8.649           2.00           0.00         94.881           0.00           0.00        0.15400           2.00           2.71        2.52700           0.00           0.00         3.2640           0.00           0.00
       10479.00          8.649           2.00           0.00         89.689           0.00           0.00        0.15400           2.00           2.71        2.53200           0.00           0.00         3.1970           0.00           0.00
       10479.50          8.649           2.00           0.00         84.391           0.00           0.00        0.13900           0.00           2.71        2.55100           0.00           0.00         3.1940           0.00           0.00
       10480.00          8.649           2.00           0.00         77.675           0.00           0.00        0.12500           0.00           2.71        2.56900           0.00           0.00         3.0680           0.00           0.00
       10480.50          8.649           2.00           0.00         76.387           0.00           0.00        0.12700           0.00           2.71        2.58500           0.00           0.00         2.8900           0.00           0.00
       10481.00          8.649           2.00           0.00         83.217           0.00           0.00        0.12900           0.00           2.71        2.57100           0.00           0.00         2.8750           0.00           0.00
       10481.50          8.649           2.00           0.00         94.553           0.00           0.00        0.14000           0.00           2.71        2.55900           0.00           0.00         2.9100           0.00           0.00
       10482.00          8.649           2.00           0.00        103.226           0.00           0.00        0.15600           0.00           2.71        2.54400           0.00           0.00         3.0040           0.00           0.00
       10482.50          8.649           2.00           0.00        105.531           0.00           0.00        0.17400           0.00           2.71        2.53200           0.00           0.00         3.0630           0.00           0.00
       10483.00          8.649           2.00           0.00        107.567           0.00           0.00        0.17600           0.00           2.71        2.52000           0.00           0.00         3.1000           0.00           0.00
       10483.50          8.649           2.00           0.00        108.642           0.00           0.00        0.17700           0.00           2.71        2.52600           0.00           0.00         3.1340           0.00           0.00
       10484.00          8.649           2.00           0.00         90.650           0.00           0.00        0.14400           0.00           2.71        2.53400           0.00           0.00         3.3150           0.00           0.00
       10484.50          8.649           2.00           0.00         65.392           0.00           0.00        0.10000           0.00           2.71        2.58500           0.00           0.00         3.7280           0.00           0.00
       10485.00          8.649           2.00           0.00         68.926           0.00           0.00        0.07600           0.00           2.71        2.61700           0.00           0.00         3.6350           0.00           0.00
       10485.50          8.649           2.00           0.00         86.056           0.00           0.00        0.10000           0.00           2.71        2.59000           0.00           0.00         3.5010           0.00           0.00
       10486.00          8.649           2.00           0.00        107.794           0.00           0.00        0.13600           0.00           2.71        2.56600           0.00           0.00         3.3620           0.00           0.00
       10486.50          8.649           2.00           0.00        103.172           0.00           0.00        0.16000           0.00           2.71        2.54700           0.00           0.00         3.3270           0.00           0.00
       10487.00          8.649           2.00           0.00         90.011           0.00           0.00        0.14200           0.00           2.71        2.56600           0.00           0.00         3.5970           0.00           0.00
       10487.50          8.649           2.00           0.00         71.825           0.00           0.00        0.11800           0.00           2.71        2.61500           0.00           0.00         3.8070           0.00           0.00
       10488.00          8.649           2.00           0.00         74.353           0.00           0.00        0.09000           0.00           2.71        2.61400           0.00           0.00         3.7490           0.00           0.00
       10488.50          8.649           2.00           0.00         85.209           0.00           0.00        0.10500           0.00           2.71        2.60200           0.00           0.00         3.6330           0.00           0.00
       10489.00          8.649           2.00           0.00         95.208           0.00           0.00        0.11800           0.00           2.71        2.57100           0.00           0.00         3.5200           0.00           0.00
       10489.50          8.649           2.00           0.00         98.590           0.00           0.00        0.13200           0.00           2.71        2.55800           0.00           0.00         3.4080           0.00           0.00
